Geometri,Latitude,Longitude,City,Biaya,21-Dec-19,22-Dec-19,23-Dec-19,24-Dec-19,25-Dec-19,26-Dec-19,27-Dec-19,28-Dec-19
northeast,2.33047813,98.88273053,Sipinsur Park Geosite and Pine Forest,0,22 (Hujan),24(Gerimis Berpetir),25(Badai Guntur Tidak Merata),24 (Gerimis Berpetir),25(Gerimis Berpetir),24(Gerimis Berpetir),24(Gerimis Berpetir),24(Gerimis Berpetir)
southwest,2.32777847,98.88003087,,0,22 (Hujan),24(Gerimis Berpetir),25(Badai Guntur Tidak Merata),24 (Gerimis Berpetir),25(Gerimis Berpetir),24(Gerimis Berpetir),24(Gerimis Berpetir),24(Gerimis Berpetir)
northeast,2.36159643,98.81772863,Air Terjun Janji,5000,24 (hujan),26(Gerimis Berpetir),27(Badai Guntur Tidak Merata),26(Gerimis Berpetir),27(Gerimis Berpetir),26(Gerimis Berpetir),26(Gerimis Berpetir),26(Gerimis Berpetir)
southwest,2.35889677,98.81502897,,5000,24 (hujan),26(Gerimis Berpetir),27(Badai Guntur Tidak Merata),26(Gerimis Berpetir),27(Gerimis Berpetir),26(Gerimis Berpetir),26(Gerimis Berpetir),26(Gerimis Berpetir)
northeast,2.30939408,98.80738168,Tombak Sulusulu,0,,,,,,,,
southwest,2.30669442,98.80468202,,0,,,,,,,,
northeast,2.13442748,98.49066575,Air Terjun Sipulak,50000,23(Hujan),24(Gerimis berpetir),25(Gerimis Berpetir),25(Gerimis berpetir),24(Gerimis Berpetir),25(Gerimis Berpetir),25(Gerimis Berpetir),26(Gerimis Bepetir)
southwest,2.13172782,98.48704475,,50000,23(Hujan),24(Gerimis berpetir),25(Gerimis Berpetir),25(Gerimis berpetir),24(Gerimis Berpetir),25(Gerimis Berpetir),25(Gerimis Berpetir),26(Gerimis Bepetir)
northeast,2.13667395,98.5466682,Air Terjun Pollung,15000,25(Berawan),25(Gerimis Berpetir),26(Badai Guntur Tidak Merata),26(Gerimis Berpetir),26(Gerimis Berpetir),26(Badai Guntur),26(Badai Guntur Tidak Merata),27(Badai Guntur Tidak Merata)
southwest,2.12921535,98.54328259999998,,15000,25(Berawan),25(Gerimis Berpetir),26(Badai Guntur Tidak Merata),26(Gerimis Berpetir),26(Gerimis Berpetir),26(Badai Guntur),26(Badai Guntur Tidak Merata),27(Badai Guntur Tidak Merata)
northeast,2.34950343,98.42782603,Air Terjun Sibabo,0,,,,,,,,
southwest,2.34680377,98.42512637,,0,,,,,,,,
northeast,2.27213723,98.51991353,Air Terjun Simolap,0,27(Badai Petir),29(Badai Petir),31(Hujan),30(Badai Petir),30(Badai Petir),29(Badai Petir),30(Badai Petir),30(Badai Petir)
southwest,2.26943757,98.51721387,,0,27(Badai Petir),29(Badai Petir),31(Hujan),30(Badai Petir),30(Badai Petir),29(Badai Petir),30(Badai Petir),30(Badai Petir)
northeast,2.3000476,98.79702783,Air Terjun Sitiotio,5000,26 (Badai Petir),27(Badai Petir),26(Badai Petir),27(Badai Petir),27(Badai Petir),27(Badai Petir),27(Badai Petir),27(Badai Petir)
southwest,2.2966408,98.79432817,,5000,26 (Badai Petir),27(Badai Petir),26(Badai Petir),27(Badai Petir),27(Badai Petir),27(Badai Petir),27(Badai Petir),27(Badai Petir)
northeast,2.32540333,98.84756993,Aek Sipangolu Bakkara,5000,24(Hujan),26(Gerimis Berpetir),27(Badai Guntur Tidak Merata),26(Gerimis Berpetir),27(Gerimis Berpetir),26(Gerimis Berpetir),26(Gerimis Berpetir),26(Gerimis Berpetir)
southwest,2.32270367,98.84487027,,5000,24(Hujan),26(Gerimis Berpetir),27(Badai Guntur Tidak Merata),26(Gerimis Berpetir),27(Gerimis Berpetir),26(Gerimis Berpetir),26(Gerimis Berpetir),26(Gerimis Berpetir)
northeast,2.24347223,98.79564338,Bukit Inspirasi,5000,,,,,,,,
southwest,2.24077257,98.79294372,,0,,,,,,,,
northeast,2.33803795,98.8183635,Panatapan Sileme-leme,0,,,,,,,,
southwest,2.33480815,98.8101879,,0,,,,,,,,
northeast,2.42168603,98.77648278,Tempat Permandian,60000,,,,,,,,
southwest,2.41898637,98.77378312,,60000,,,,,,,,
northeast,2.29317173,98.88156293,Simpang Masuk Sipincur,5000,22 (Hujan),24(Gerimis Berpetir),25(Badai Guntur Tidak Merata),24 (Gerimis Berpetir),25(Gerimis Berpetir),24(Gerimis Berpetir),24(Gerimis Berpetir),24(Gerimis Berpetir)
southwest,2.29047207,98.87886327,,5000,22 (Hujan),24(Gerimis Berpetir),25(Badai Guntur Tidak Merata),24 (Gerimis Berpetir),25(Gerimis Berpetir),24(Gerimis Berpetir),24(Gerimis Berpetir),24(Gerimis Berpetir)
northeast,2.21282003,98.54398403,objek wisata baronjong aek sirahar,20000,23(Gerimis),24(Gerimis Berpetir),24(Gerimis Berpetir),24(Gerimis Berpetir),24(Gerimis Berpetir),24(Gerimis Berpetir),25(Gerimis Berpetir),26(Badai Guntur Tidak Merata)
southwest,2.21012037,98.54128437,,20000,23(Gerimis),24(Gerimis Berpetir),24(Gerimis Berpetir),24(Gerimis Berpetir),24(Gerimis Berpetir),24(Gerimis Berpetir),25(Gerimis Berpetir),26(Badai Guntur Tidak Merata)
northeast,2.20701268,98.53325613,Saba Napa,50000,,,,,,,,
southwest,2.20431302,98.53055647,,50000,,,,,,,,
northeast,2.30697478,98.81384158,Istana Makam Raja Sisingamangaraja,7000,,,,,,,,
southwest,2.30427512,98.81114192,,7000,,,,,,,,
northeast,2.32106183,98.82730178,BATU HUNDUL-HUNDULAN,0,25(Hujan),26(Gerimis Berpetir),27(Badai Guntur Tidak Merata),27(Gerimis Berpetir),27(Gerimis Berpetir),27(Gerimis Berpetir),27(Gerimis Berpetir),27(Gerimis Berpetir)
southwest,2.31836217,98.82460212,,0,25(Hujan),26(Gerimis Berpetir),27(Badai Guntur Tidak Merata),27(Gerimis Berpetir),27(Gerimis Berpetir),27(Gerimis Berpetir),27(Gerimis Berpetir),27(Gerimis Berpetir)
northeast,2.32172353,98.82784273,HARIARA TUNGKOT,0,25(Hujan),26(Gerimis Berpetir),27(Badai Guntur),27(Gerimis Berpetir),27(Gerimis Berpetir),27(Gerimis Berpetir),27(Gerimis Berpetir),27(Gerimis Berpetir)
southwest,2.31902387,98.82514307,,0,25(Hujan),26(Gerimis Berpetir),27(Badai Guntur),27(Gerimis Berpetir),27(Gerimis Berpetir),27(Gerimis Berpetir),27(Gerimis Berpetir),27(Gerimis Berpetir)
northeast,2.31613993,98.98157603,Bukit Doa,20000,,,,,,,,
southwest,2.31344027,98.97887637,,20000,,,,,,,,
northeast,2.33523683,98.91779818,Muara Nauli,5000,29(Berawan),29(Gerimis Berpetir),29(Badai Guntur Tidak Merata),30(Gerimis Berpetir),29(Gerimis Berpetir),29(Badai Guntur),30(Badai Guntur),31(Badai Guntur)
southwest,2.33253717,98.91509852,,5000,29(Berawan),29(Gerimis Berpetir),29(Badai Guntur Tidak Merata),30(Gerimis Berpetir),29(Gerimis Berpetir),29(Badai Guntur),30(Badai Guntur),31(Badai Guntur)
